,name,address,latitude,longitude
0,서울시립대점,서울특별시 동대문구 전농로 222 씨티프라자 104~105호,37.5839314,127.0536308
1,회기중앙점,서울특별시 동대문구 이문로 30 올리브영,37.5901333,127.0563937
2,휘경동점,"서울특별시 동대문구 망우로 78, 휘경빌딩 1층",37.5897469,127.062027
3,경희대점,서울특별시 동대문구 경희대로 2,37.5918253,127.0526024
4,청량리역사점,서울특별시 동대문구 왕산로 214 청량리역 맞이방 올리브영,37.580033,127.047591
5,외대정문점,서울특별시 동대문구 이문로 107,37.5982966771548,127.057942413722
6,장안동사거리점,서울특별시 동대문구 장한로 129,37.572004,127.0709886
7,중랑점,서울특별시 중랑구 망우로32길 6,37.5935986,127.0762919
8,답십리역점,서울특별시 동대문구 고미술로 81 1층 103호,37.5656007690319,127.055751666603
9,홈플러스월곡점,"서울특별시 성북구 화랑로 76 홈플러스월곡점 B1층 X17,YK호 올리브영 코너",37.6018031,127.0404674
10,동덕여대점,서울특별시 성북구 화랑로11길 31,37.6037871,127.042043
11,사가정역점,서울특별시 중랑구 면목로 310 극장빌딩 1층,37.5798051,127.0880895
12,안암점,서울특별시 성북구 고려대로24길 32 1층,37.5848050119051,127.029234304551
13,장한평역점,서울특별시 동대문구 장한로 3,37.5621321,127.06458
14,중화역점,서울특별시 중랑구 동일로 802 1층,37.602093,127.0797342
15,상봉역점,서울특별시 중랑구 망우로 302-1,37.5963425,127.0861667
16,종암점,서울특별시 성북구 종암로 123 우영타워 102호,37.6010488,127.0331479
17,중곡역점,서울특별시 광진구 능동로 400,37.5650580830652,127.08445683899
18,상봉듀오트리스점,"서울특별시 중랑구 상봉로 131 (상봉동, 상봉 듀오트리스)",37.5973166,127.0921454
19,왕십리역사점,서울특별시 성동구 왕십리광장로 17 2층,37.5614417528647,127.038394194396
20,신설동역점,서울특별시 동대문구 왕산로 4 1층,37.575645,127.0241084
21,한양대점,서울특별시 성동구 마조로 11 1층,37.5590481,127.0406685
22,석계역점,서울특별시 노원구 석계로1길 14,37.6156667,127.0638881
23,왕십리역점,서울특별시 성동구 왕십리로 331 공명빌딩 1층,37.56259951182613,127.03278719194137
24,길음역점,서울특별시 성북구 정릉로 376 BR빌딩 지하  2층,37.6020532,127.0253266
25,상왕십리역점,서울특별시 성동구 왕십리로 382,37.5651258,127.0279921
26,군자역점,"서울특별시 광진구 천호대로 548 1층, 2층",37.5568272074713,127.07899226716
27,하월곡점,서울특별시 성북구 월계로 52,37.6114823,127.0355806
28,돈암점,서울특별시 성북구 동소문로22길 39,37.5913563,127.0183211
29,황학사거리점,서울특별시 성동구 왕십리로 410 센트라스 1층 158호,37.5672763,127.0236633
30,돈암중앙점,서울특별시 성북구 동소문로 118 1층,37.5933555,127.0181816
31,성신여대입구역점,서울특별시 성북구 아리랑로 9,37.5937505,127.0159944
32,신내점,서울특별시 중랑구 신내로72,37.6054449,127.0957842
33,동묘앞역점,서울특별시 종로구 지봉로 37-1,37.5733288,127.0153537
34,롯데마트행당역점,서울특별시 성동구 행당로 84 행당 한진타운상가 B2층,37.5560348,127.0292269
35,광운대역점,서울특별시 노원구 석계로 102 1층 2호,37.623338,127.060926
36,신당역점,서울특별시 중구 다산로 258,37.5660144,127.0166837
37,길음점,서울특별시 성북구 길음로 33 길음뉴타운상가 A동 1층 3호,37.6074911,127.0179848
38,성수역점,서울특별시 성동구 아차산로 91,37.5452922,127.0544809
39,성동성수점,서울특별시 성동구 성수일로6길 47,37.5442805,127.0553389
40,아차산역점,서울특별시 광진구 천호대로 671,37.5513328,127.090541
41,홈플러스신내점,서울특별시 중랑구 신내로 201 (신내동),37.6157914,127.0937675
42,건대점,서울특별시 광진구 능동로 133 올리브영,37.5428471219373,127.071673179563
43,노원공릉점,서울특별시 노원구 동일로 1083,37.62655599466692,127.07218723435113
44,두타점,서울특별시 중구 장충단로 275 두산타워빌딩 지하 2층,37.5688849422849,127.008775114213
45,미아뉴타운점,서울특별시 강북구 삼양로27길 19 204동 115~117호,37.6161238065432,127.021741379374
46,공릉역점,"서울특별시 노원구 동일로192길 74 (공릉동 441-92, 93)",37.6271108,127.0769922
47,동대문역사문화공원역점,서울특별시 중구 장충단로 251 1층,37.5672491,127.0080871
48,건대입구점,서울특별시 광진구 동일로22길 115 1층,37.5408235,127.0704585
49,대학로중앙점,서울특별시 종로구 대학로 144 1층,37.584031,127.0022037
50,서울숲역점,서울특별시 성동구 왕십리로 50 (성수동1가 656-335 1층),37.541868946889146,127.04495335562443
51,정릉점,서울특별시 성북구 보국문로 38 2층,37.6078512,127.0103804
52,청구역점,서울특별시 중구 다산로 168 성월빌딩 일부,37.55845514944031,127.01308789324759
53,혜화역점,서울특별시 종로구 대학로 122 흥사단회관 1층,37.5822383,127.0022389
54,건대몰오브케이점,서울특별시 광진구 아차산로30길 26 몰오브케이 1층 101-2호,37.539793,127.0669456
55,홍대대학로점,서울특별시 종로구 대학로 57 홍익대대학로캠퍼스 내 1층,37.5764834,127.0014454
56,금호점,서울특별시 성동구 독서당로 302 1층,37.5475563,127.0226409
57,대학로점,서울특별시 종로구 창경궁로 237 1~3층,37.5830695255938,126.998526731117
58,미아역점,서울특별시 강북구 도봉로 188,37.6256414,127.0271038
59,스타시티점,서울특별시 광진구 아차산로 262 스타시티가 1층,37.538528,127.073483
60,제일제당센터점,서울특별시 중구 동호로 330 지하1층,37.5638549,127.0041251
61,약수역점,서울특별시 중구 동호로 189,37.554896,127.0102653
62,광장점,서울특별시 광진구 아차산로 537-17 광장힐스테이트 단지 내 상가 19호,37.5434468,127.0997349
63,구의역점,서울특별시 광진구 아차산로 378 한승빌딩 1층,37.5365748,127.0848701
64,광나루역점,서울특별시 광진구 아차산로 607,37.5473702,127.1060485
65,뚝섬유원지역점,서울특별시 광진구 능동로 7,37.5323439,127.0667786
66,올림픽대교북단점,서울특별시 광진구 아차산로 484,37.5407318,127.0956825
67,충무로역점,서울특별시 중구 퇴계로 222 구인빌딩 1층,37.5615367,126.9963685
68,홈플러스중계점,서울특별시 노원구 동일로204가길 12 홈플러스중계점 1층,37.6403495,127.0679132
69,강변엔터식스점,서울특별시 광진구 광나루로56길 85 테크노마트 1층 테크노마트 1층,37.5357492,127.0958444
70,강변역점,서울특별시 광진구 강변역로4길 10,37.5353613,127.0934277
71,종로YBM점,서울특별시 종로구 종로 104,37.569987,126.9887953
72,수유중앙점,서울특별시 강북구 도봉로 336 (번동),37.6375313,127.0255554
73,압구정로데오점,서울특별시 강남구 압구정로50길 9,37.5276993,127.0382863
74,청담사거리점,서울특별시 강남구 도산대로89길 8 엘에이치빌딩 1층,37.5251859,127.0506275
75,수유역점,서울특별시 강북구 도봉로 87길 8 1층,37.6384385,127.0252149
76,안국점,서울특별시 종로구 율곡로 45 (안국동) 1층,37.5764153,126.9843618
77,종로2가점,서울특별시 종로구 종로12길 21 평구빌딩 1층,37.5690617,126.9859665
78,종각점,서울특별시 종로구 종로 61 1층,37.5704788,126.9841474
79,올리브영 명동 플래그십,서울특별시 중구 명동길 53 1~2층,37.56409158001314,126.98517710459745
80,명동역점,서울특별시 중구 퇴계로 127 1층,37.5611946,126.9858466
81,압구정역점,서울특별시 강남구 논현로 878 중산빌딩 1층,37.5271639,127.0290047
82,을지로입구역점,서울특별시 중구 명동3길 36 지하1층,37.5653563,126.9837218
83,중계역점,서울특별시 노원구 동일로 1335 (상계동),37.6480005,127.0622582
84,명동대로점,서울특별시 중구 퇴계로 120 1층,37.5606563,126.9850729
85,명동중앙점,서울특별시 중구 명동8나길 18 인송빌딩 1층 (충무로1가 22-4),37.5615670147305,126.98400288242
86,암사역점,서울특별시 강동구 올림픽로 769 삼정빌딩 1층,37.5500142,127.1272021
87,압구정점,서울특별시 강남구 논현로175길 6 1층,37.5262787,127.0276472
88,종로1가점,서울특별시 종로구 종로 19 르미에르종로타운 1층,37.5704955,126.9798116
89,학동중앙점,서울특별시 강남구 도산대로 326,37.5223473,127.0377634
90,압구정타운점,서울특별시 강남구 논현로 842 압구정빌딩 1층,37.5242698,127.0287932
91,청담역점,서울특별시 강남구 삼성로 716,37.5199060766075,127.050036555762
92,한남오거리점,서울특별시 용산구 독서당로 65-1,37.533869,127.0077676
93,순천향입구점,서울특별시 용산구 대사관로 71,37.5334153,127.0060003
94,세종로점,서울특별시 종로구 세종대로 161 1층,37.5707262,126.9762765
95,은행사거리점,서울특별시 노원구 한글비석로 264 중계그랜드프라자 1층,37.6510381,127.0772139
96,강남구청역점,서울특별시 강남구 선릉로 703 1층,37.5177449,127.0407782
97,시청역점,서울특별시 중구 세종대로16길 1 1층,37.5635794,126.9771326
98,창동역점,서울특별시 도봉구 노해로63길 84-16,37.6522207,127.0468504
99,천호현대점,서울특별시 강동구 올림픽로 664 1층,37.5406175,127.1249465
100,노원역사거리점,"서울특별시 노원구 노해로 480 조광빌딩 1층,2층",37.6541794204255,127.061435135164
101,창동점,서울특별시 도봉구 마들로11길 57,37.6534909,127.0501774
102,봉은사역점,서울특별시 강남구 영동대로 602,37.5148931,127.0604294
103,천호엔터식스점,"서울특별시 강동구 천호대로 지하 997 지하 1층, 천호엔터식스 012호",37.5385148,127.1251309
104,천호중앙점,서울특별시 강동구 천호대로 1027 일동빌딩 1층,37.5381069,127.1263973
105,노원점,"서울특별시 노원구 상계로 65 105호,106호",37.6564436,127.0622438
106,대한통운본사점,서울특별시 중구 세종대로9길 53 대한통운빌딩 지하1층,37.5619655,126.9728647
107,이태원중앙점,서울특별시 용산구 이태원로 180 스카이하이 2층,37.5342977,126.99421
108,씨제이남산더센터점,서울특별시 중구 소월로2길 12 CJ빌딩,37.554631,126.975995
109,올리브영 가로수길 타운,서울특별시 강남구 도산대로 133,37.5179333,127.0230516
110,서울스퀘어점,서울특별시 중구 한강대로 416 서울스퀘어빌딩 지하1층,37.5555047,126.9738587
111,정동점,서울특별시 중구 새문안로 26,37.5674893,126.9687705
112,강동구청점,서울특별시 강동구 성내로 19,37.5302675,127.1229288
113,명일역점,서울특별시 강동구 양재대로 1637 1층 2호~4호,37.5518296,127.1438177
114,서울역점,서울특별시 중구 한강대로 405,37.556305,126.972153
115,신사점,서울특별시 강남구 도산대로 116 논현빌딩 1층,37.5165782,127.0215513
116,이태원입구점,서울특별시 용산구 이태원로 145,37.5345047,126.9899529
117,학동역점,서울특별시 강남구 학동로 177 태석빌딩 1층,37.5142351,127.0302579
118,덕성여대점,서울특별시 도봉구 삼양로144길 17 1층,37.6517785,127.0138329
119,잠실장미상가점,"서울특별시 송파구 올림픽로35길 124 (신천동 7) 장미아파트 에이상가 내재 1동 101,107호,124-129호",37.517214,127.100518
120,선정릉역점,서울특별시 강남구 선릉로 602 1층,37.51066,127.0440163
121,쌍문점,서울특별시 도봉구 도당로 2 2층,37.6584173662881,127.035293178888
122,코엑스몰점,서울특별시 강남구 테헤란로87길 22,37.5096492,127.05933
123,파르나스몰점,서울특별시 강남구 테헤란로 521 지하1층 파르나스몰 R-37,37.5091916919873,127.06080691987
124,신천점,서울특별시 송파구 올림픽로 116-1 신원빌딩 1층,37.5113988,127.0836274
125,종로평창점,서울특별시 종로구 평창문화로 51 1층 올리브영,37.6058042680554,126.966781738527
126,트윈시티점,"서울특별시 용산구 한강대로 366 B1 109,110호",37.55108621021494,126.9729124035517
127,홈플러스강동점,서울특별시 강동구 양재대로 1571 홈플러스 강동점 1층,37.54571296642377,127.14225395308974
128,홈플러스잠실점,서울특별시 송파구 올림픽로35가길 16,37.5162594,127.1030345
129,독립문점,"서울특별시 종로구 송월길 99 경희궁 자이 2132, 2133, 2134호",37.5708610950823,126.962352257162
130,잠실역8호선점,서울특별시 송파구 올림픽로 305 잠실역8호선 지하상가 H7~10호,37.513319,127.1003127
131,잠실점,서울특별시 송파구 올림픽로 269 101호,37.5143411,127.1007063
132,길동사거리점,서울특별시 강동구 천호대로 1120 1층,37.5345149,127.1356424
133,길동역점,서울특별시 강동구 양재대로 1481 1층,37.5382736147401,127.13990196958
134,상계보람점,서울특별시 노원구 한글비석로 471,37.6640829,127.0654214
135,언주역점,서울특별시 강남구 봉은사로 209,37.5079305,127.0350107
136,롯데백화점잠실점,서울특별시 송파구 올림픽로 240 롯데백화점잠실점 지하1층,37.5113096112036,127.098141751177
137,롯데월드몰점,서울특별시 송파구 올림픽로 300 롯데월드몰 5층,37.513846,127.104483
138,롯데월드점,서울특별시 송파구 올림픽로 240 (롯데월드 어드벤쳐 지하1층 매표소 인근),37.51131078364221,127.09814039543262
139,선릉역점,서울특별시 강남구 선릉로 513,37.505326,127.0483
140,선릉타운점,서울특별시 강남구 테헤란로 411 성담빌딩 1층,37.50549488423753,127.0508623901558
141,송파구청점,서울특별시 송파구 오금로 87 잠실리시온 1층,37.5146445,127.1074343
142,숙대입구역점,서울특별시 용산구 한강대로 285 (갈월동),37.5437068,126.9719049
143,홈플러스방학점,서울특별시 도봉구 도봉로 678 홈플러스방학점 1층,37.6648915,127.043577
144,방학역점,서울특별시 도봉구 도봉로150길 28,37.6658723,127.0447379
145,선릉로점,서울특별시 강남구 테헤란로64길 20 원동방빌딩 1층,37.503529,127.0511729
146,선릉아이타워점,서울특별시 강남구 테헤란로 326 역삼아이타워 1층 102호,37.503577,127.0470554
147,숙대점,서울특별시 용산구 청파로45길 19 복조빌딩 1층(올리브영 숙대점),37.5442281,126.9693667
148,잠실학원사거리점,서울특별시 송파구 석촌호수로 130,37.507221,127.091595
149,고덕점,서울특별시 강동구 동남로75길 13-15 성은빌딩 1층,37.553617,127.1555565
150,신논현점,서울특별시 서초구 강남대로 507 1층,37.5071417,127.0223416
151,만리동점,서울특별시 중구 만리재로 175 서울역센트럴자이 상가 1층,37.5519764,126.9627224
152,둔촌점,서울특별시 강동구 양재대로 1317 경일빌딩 1층,37.5240527,127.1342808
153,방이시장점,"서울특별시 송파구 백제고분로 460 (방이동, 쿠피아타워)",37.5114786473939,127.113331548837
154,신강남점,서울특별시 강남구 봉은사로2길 31,37.5026096332208,127.026544075503
155,아현역점,서울특별시 서대문구 신촌로35길 10 103호,37.5585455,126.9559633
156,용산리첸시아점,"서울특별시 용산구 백범로 341 외 1필지(원효로1가, 리첸시아 용산) 리첸시아 에이동 103호, 104호, 105호, 112호",37.5383556,126.9678941
157,NC강남점,서울특별시 서초구 잠원로 51 NC백화점 강남점 1층,37.508000,127.0081100
158,강남파이낸스점,서울특별시 강남구 테헤란로 152 강남파이낸스센터 지하2층,37.4996771,127.0361459
159,대치점,서울특별시 강남구 도곡로 448 동서빌딩,37.49810978675211,127.05954696723899
160,석촌역점,서울특별시 송파구 백제고분로 387,37.5065158,127.1084912
161,역삼역점,서울특별시 강남구 테헤란로 138 솔로몬역삼타워 1층,37.4996798,127.0342685
162,한티역점,서울특별시 강남구 선릉로 312 1층,37.4975671,127.0526845
163,애오개역점,서울특별시 마포구 마포대로 201 마포트라펠리스 2차 1층,37.5522195,126.955545
164,올리브영 강남 플래그십,서울특별시 서초구 강남대로 429 동일빌딩 1~3층,37.50079,127.025762
165,배명사거리점,서울특별시 송파구 백제고분로 276 공익빌딩 1층,37.502111,127.0972725
166,역삼점,서울특별시 강남구 테헤란로 115 서림빌딩 1층,37.4990576,127.029798
167,강남엔터식스점,"서울특별시 서초구 신반포로 지하 188 엔터식스 강남점 26, 27호",37.505658,127.004958
168,대치역점,서울특별시 강남구 남부순환로 2927,37.4936549,127.0603898
169,올림픽아파트점,서울특별시 송파구 양재대로 1220 (BNK올림픽프라자) 1층 올리브영,37.5153388210257,127.133266146111
170,홍제역점,서울특별시 서대문구 통일로 446,37.5887852,126.9445791
171,강남중앙점,서울특별시 강남구 강남대로 372,37.4960337,127.0290743
172,공덕파크팰리스점,서울특별시 마포구 마포대로 143 마포공덕파크팰리스 108호,37.5474692,126.953067
173,상일동역점,"서울특별시 강동구 고덕로 399 고덕동 210-1 고덕센트럴푸르지오 메가스퀘어 102,103, 104호",37.5574405229047,127.16967893433
174,남역삼점,서울특별시 강남구 논현로 318 메디빌딩 1층,37.4937575,127.040621
175,동부이촌점,서울특별시 용산구 이촌로75길 16,37.5205941,126.9744269
176,방이역점,서울특별시 송파구 마천로 41,37.5090578,127.1255294
177,신용산역점,"서울특별시 용산구 한강대로 95 (한강로2가, 래미안용산) 101호,102호",37.528778,126.9664218
178,용산아이파크몰점,서울특별시 용산구 한강대로23길 55 HDC 아이파크몰 4층,37.5297718014452,126.964741503485
179,이대중앙점,서울특별시 서대문구 이화여대길 43,37.5588768,126.9454373
180,공덕역점,서울특별시 마포구 백범로 199 메트로디오빌 1층,37.5435623,126.9528951
181,서초타운점,서울특별시 서초구 서초대로78길 32,37.4950513,127.0280177
182,수락산역점,서울특별시 노원구 동일로 1678 1층,37.6780947400484,127.055706735633
183,강남우성점,서울특별시 강남구 강남대로 320 황화빌딩 1층 일부,37.4918533105983,127.03104820955
184,서초유원점,서울특별시 서초구 서초중앙로24길 35,37.4953862,127.0174499
185,타워팰리스점,서울특별시 강남구 언주로30길 39 Lynn Square(린스퀘어) 1층,37.4886493,127.0530231
186,상일동점,"서울특별시 강동구 상일로10길 36 세종텔레콤  지식산업센터1층 110-3호, 111호",37.550799,127.1741043
187,서초대로점,서울특별시 서초구 서초대로 314 정보통신공제조합회관,37.4940948,127.0158619
188,신촌명물거리점,서울특별시 서대문구 명물길 54,37.5588768,126.9393933
189,마포역점,서울특별시 마포구 마포대로 53 마포트라팰리스상가 115호,37.5414289,126.9470577
190,서래마을점,서울특별시 서초구 서래로 39 1층,37.4986589,126.9981822
191,신촌대로점,서울특별시 서대문구 신촌로 121 1층,37.5562447,126.9392834
192,대흥역점,서울특별시 마포구 백범로 91,37.5482028,126.9417851
193,마포도화점,서울특별시 마포구 삼개로 20,37.5385187,126.9470589
194,양재대로점,서울특별시 서초구 강남대로 267 1층,37.4871745,127.0322243
195,교대점,서울특별시 서초구 서초중앙로 95 1층,37.4903574,127.0139433
196,녹번역점,서울특별시 은평구 은평로 240 힐스테이트녹번역 상가 B3층 308 ~ 311호,37.60077123070189,126.9338318625399
197,신촌연세점,서울특별시 서대문구 연세로 37 1층,37.5589065,126.9366878
198,올리브영 신촌 타운,서울특별시 서대문구 연세로 10,37.55636682288954,126.93709295052278
199,서강대점,서울특별시 마포구 백범로 21,37.5529137,126.9375877
200,양재스타클래스점,서울특별시 강남구 남부순환로 2615,37.4851386,127.0358583
201,서초역점,서울특별시 서초구 반포대로 110,37.4899836,127.0091084
202,수서역점,서울특별시 강남구 밤고개로1길 10,37.4880654,127.1017898
203,신촌로터리점,서울특별시 마포구 서강로 133 1층,37.5543692,126.9352390
204,신촌역점,서울특별시 서대문구 신촌로 79,37.5560549,126.9352116
205,양재역점,서울특별시 서초구 남부순환로 지하 2585 신분당선 양재역,37.4839347328908,127.034544193436
206,일원역점,서울특별시 강남구 일원로 115 삼성생명 일원동 빌딩 114호,37.4838956,127.0844681
207,가락시장역점,서울특별시 송파구 중대로 105 가락 ID타워 1층,37.4935905,127.1199873
208,연희점,서울특별시 서대문구 연희로 79,37.5655282,126.9295984
209,남부터미널점,서울특별시 서초구 효령로 283 서경빌딩 1층,37.4851129,127.0149846
210,NC불광점,서울특별시 은평구 불광로 20 NC백화점 1층,37.609817,126.9289194
211,개롱역점,"서울특별시 송파구 오금로 412, 성지빌딩",37.4973464,127.1356744
212,불광역점,서울특별시 은평구 통일로 736,37.6112829,126.929612
213,창천점,서울특별시 서대문구 신촌로 17,37.5581975,126.9290127
214,광흥창역점,서울특별시 마포구 서강로 75-16 PEER 1층,37.5496399100379,126.931320874755
215,방배카페거리점,서울특별시 서초구 방배중앙로 175 1층 일부 올리브영,37.494660023489,126.985822624485
216,명지대점,서울특별시 서대문구 거북골로 34 명지대학교 인문캠퍼스 교육문화복합시설 1층MCC관,37.579453,126.923430
217,포이사거리점,서울특별시 강남구 논현로 82,37.4773867854988,127.045337416978
218,내방역점,서울특별시 서초구 방배로 184,37.4900598,126.9925184
219,홍대공항철도역점,서울특별시 마포구 양화로 183,37.558367276680116,126.92514875221413
220,동교동점,서울특별시 마포구 동교로 207,37.5584965,126.9232474
221,문정역점,"서울특별시 송파구 송파대로 167 B동 지하1층 G127,128호",37.484949,127.121985
222,응암점,서울특별시 은평구 은평로 102 연합빌딩 1 ~ 2층,37.5995259145606,126.919106041551
223,중앙대점,서울특별시 동작구 흑석로 81,37.5071021,126.9585842
224,홍대정문점,서울특별시 마포구 홍익로 4 1층,37.5532428,126.9241604
225,올리브영 홍대 타운,서울특별시 마포구 양화로 156 엘지팰리스 1층,37.5561379,126.9234737
226,가재울뉴타운점,서울특별시 서대문구 거북골로 100 래미안루센티아 제상가동 제지3층,37.5757183902937,126.918235566311
227,응암오거리점,서울특별시 은평구 응암로 180,37.5880568,126.9170363
228,방배점,서울특별시 서초구 방배로 83 (방배동 909-6),37.4818646316946,126.997007580557
229,상수역점,서울특별시 마포구 와우산로 49 상수아뜨리에 1층,37.5490229,126.9228403
230,연신내범서점,서울특별시 은평구 통일로 842,37.6186648,126.9219509
231,홍대중앙점,"서울특별시 마포구 어울마당로 68 해창빌딩 1,2F",37.551128,126.921486
232,거여역점,"서울특별시 송파구 오금로 512, 1층 110호, 111호",37.4926875,127.1455439
233,구산역점,서울특별시 은평구 서오릉로 137 (역촌동),37.6107811,126.9176107
234,방배이수점,서울특별시 서초구 동작대로 118 예다인프라자빌딩 1층,37.487046,126.9825516
235,연신내로데오점,서울특별시 은평구 연서로 221,37.6184559,126.9198017
236,연신내점,서울특별시 은평구 통일로 857 1층,37.6196056,126.9203855
237,응암역점,서울특별시 은평구 증산로 475 (신사동),37.5986539,126.9153521
238,노량진중앙점,서울특별시 동작구 노량진로 162,37.5134326,126.9439157
239,송파아이파크점,서울특별시 송파구 법원로 55 송파아이파크 105호~108호,37.4798804,127.1217534
240,노량진삼거리점,서울특별시 동작구 노량진로 124 1층,37.5133505,126.9397769
241,북가좌동점,서울특별시 서대문구 거북골로 191,37.5779244,126.9093753
242,장지역점,서울특별시 송파구 충민로 66 1002(문정동) 지하1층,37.4775778,127.1249983
243,합정메세나폴리스점,서울특별시 마포구 양화로 45 메세나폴리스 지하1층,37.5515723,126.9139196
244,합정카페거리점,서울특별시 마포구 독막로 13,37.5489161,126.9151011
245,상도역점,서울특별시 동작구 양녕로 257,37.5032444,126.9472485
246,합정역점,서울특별시 마포구 독막로 2,37.5485516,126.9136805
247,구파발역점,서울특별시 은평구 진관2로 12,37.6342845,126.9185364
248,동여의도점,서울특별시 영등포구 의사당대로1길 25,37.5200631564146,126.929844969015
249,망원역점,서울특별시 마포구 월드컵로 74,37.555778,126.9107462
250,합정교보점,서울특별시 마포구 월드컵로1길 14 올리브영 합정교보점,37.5500498,126.9120613
251,남성역점,서울특별시 동작구 사당로 228,37.4834845,126.9728871
252,숭실대입구역점,서울특별시 동작구 상도로 358,37.4966361,126.9529391
253,양재하나로클럽점,서울특별시 서초구 청계산로 10 1층,37.4628241,127.042847
254,여의도역점,서울특별시 영등포구 여의나루로 61 한영회계법인빌딩 1층,37.5232277,126.9259938
255,사당점,서울특별시 동작구 동작대로 29,37.479133,126.981302
256,여의도IFC점,서울특별시 영등포구 국제금융로 10 서울국제금융센터(IFC몰) L2,37.5251775245928,126.924876706923
257,구파발점,서울특별시 은평구 진관2로 15-40 3호,37.6385604597122,126.91920049073
258,롯데몰은평점,서울특별시 은평구 통일로 1050 롯데쇼핑 롯데몰은평점 지하1층,37.6375366740938,126.917900261732
259,서여의도점,서울특별시 영등포구 국회대로70길 15-1 극동브이아이피빌딩 1층,37.529783,126.9205711
260,세곡동점,서울특별시 강남구 헌릉로569길 21-36,37.46638485458935,127.1001615546662
261,사당역지하상가점,서울특별시 동작구 동작대로 지하 3,37.4768251,126.9815833
262,장승배기역점,"서울특별시 동작구 장승배기로11가길 11 (상도동, 상도파크자이)",37.5055775,126.938111
263,망원동점,서울특별시 마포구 망원로 71 (망원동 423-4번지 1층),37.55754898868042,126.90486834105943
264,국회의사당역점,서울특별시 영등포구 의사당대로 26,37.5265371,126.9181067
265,마포구청역점,"서울특별시 마포구 월드컵로 196 대명비첸시티 1층 제102,103,105,106호",37.5648292,126.9028022
266,사당역점,서울특별시 관악구 과천대로 941 지산빌딩,37.4747004,126.9813621
267,수색점,서울특별시 은평구 수색로 216,37.5798676391166,126.899970664572
268,위례아이파크점,서울특별시 송파구 위례광장로 136,37.4771112,127.1422273
269,디지털미디어시티역점,서울특별시 마포구 성암로 지하 184 디지털미디어시티역점 지하1층,37.5768239035855,126.899020186183
270,홈플러스월드컵점,서울특별시 마포구 월드컵로 240 홈플러스월드컵점 2층,37.5699509,126.899029
271,대방역점,서울특별시 영등포구 영등포로 422 1층,37.5123322,126.9247924
272,씨제이ENM커머스부문점,서울특별시 서초구 과천대로 870-13 지하1층,37.4690421,126.9877017
273,관악로점,서울특별시 관악구 관악로 204 1층,37.4830244,126.9543161
274,낙성대인헌점,서울특별시 관악구 남부순환로248길 3 1층,37.475753236068286,126.96585797163685
275,낙성대점,서울특별시 관악구 남부순환로 1908 대원빌딩 올리브영,37.478141239861,126.960011290279
276,신길점,서울특별시 영등포구 영등포로 358 대윤메디컬센터 1층,37.5144389,126.9179297
277,상암ENM점,서울특별시 마포구 상암산로 66 CJ E&M 센터 1층,37.5782246,126.8915585
278,상암MBC점,서울특별시 마포구 성암로 267 MBC 신사옥상업시설 1층,37.5802183,126.891812
279,서울대입구역점,서울특별시 관악구 남부순환로 1840,37.4803623180231,126.95429729739
280,올리브영 관악 타운,서울특별시 관악구 관악로 171,37.4805742,126.9522095
281,당산역점,서울특별시 영등포구 당산로 223,37.5337352481764,126.901161001392
282,상암푸르지오시티점,"서울특별시 마포구 월드컵북로54길 25 상암DMC푸르지오시티, S-102호",37.5819505,126.8892596
283,신대방삼거리역점,서울특별시 동작구 보라매로 113,37.4994663,126.9278945
284,봉천역점,서울특별시 관악구 남부순환로 1735,37.4826002,126.9430829
285,영등포역사점,서울특별시 영등포구 경인로 846,37.5154999,126.9076436
286,영등포역점,서울특별시 영등포구 경인로 847,37.5168179,126.9069457
287,보라매역점,서울특별시 동작구 여의대방로 142,37.4996888,126.9206533
288,선유도역점,서울특별시 영등포구 양평로 127,37.5378129,126.8934575
289,타임스퀘어신세계점,서울특별시 영등포구 영중로 15 타임스퀘어 지하1층,37.5172877,126.9031832
290,타임스퀘어아트리움점,서울특별시 영등포구 영중로 15 타임스퀘어 3층 315호,37.5170727,126.9033221
291,보라매점,서울특별시 동작구 보라매로 5가길 16,37.4913858,126.9241312
292,신림역점,서울특별시 관악구 남부순환로 1619,37.4848029,126.9305123
293,신림점,서울특별시 관악구 신림로 353,37.4857732,126.9291981
294,타임스트림점,서울특별시 관악구 신림로 330 타임스트림점 지하1층,37.4837986,126.9300517
295,신림중앙점,서울특별시 관악구 신림로 321,37.4828969433377,126.929546648038
296,홈플러스영등포점,서울특별시 영등포구 당산로 42 홈플러스영등포점,37.518239789080404,126.89588247273568
297,녹두거리점,서울특별시 관악구 신림로 127 1층,37.4708073,126.9352561
298,문래점,서울특별시 영등포구 선유로 63 1층,37.5196965,126.8890301
299,염창역점,서울특별시 강서구 공항대로 637 1층,37.5472289,126.8757931
300,신대방역점,서울특별시 관악구 난곡로 357 1층,37.4859266,126.9134109
301,대림성모점,서울특별시 동작구 시흥대로 658 1층,37.490383,126.9081108
302,신도림테크노마트점,"서울특별시 구로구 새말로 97 신도림테크노마트 B1층 45호, 일부 46호",37.5070438414784,126.890227293528
303,등촌점,"서울특별시 양천구 목동중앙북로7길 20, 1층",37.5487323,126.8676411
304,디큐브시티점,서울특별시 구로구 경인로 662 디큐브시티 지하2층,37.5084321,126.8887332
305,신도림점,서울특별시 구로구 경인로 661,37.5095121,126.8877896
306,등촌역점,서울특별시 강서구 공항대로 543 센터스퀘어 등촌 1층,37.5507388549618,126.866412265444
307,올리브영 목동 타운,서울특별시 양천구 목동서로 159-1 CBS방송국 내 1층,37.5283658,126.8748727
308,증미역점,서울특별시 강서구 양천로 583 우림블루나인 1층,37.5573245,126.864444
309,오목교역점,서울특별시 양천구 오목로 344 청학빌딩,37.5239547,126.8752895
310,구로디지털단지역점,서울특별시 관악구 시흥대로 576,37.4840635664773,126.903083574772
311,목동하이페리온점,서울특별시 양천구 오목로 300,37.5259708,126.871277
312,구로구청점,서울특별시 구로구 구로중앙로 68 신안타워 1층 102-3호,37.49584069244,126.888828116887
313,구로디지털점,서울특별시 구로구 디지털로34길 43 코오롱싸이언스밸리 1차 1층,37.4850436,126.8988034
314,신림남부순환로점,서울특별시 관악구 남부순환로 1377,37.4801599,126.9038568
315,NC신구로점,서울특별시 구로구 구로중앙로 152 올리브영 NC신구로점,37.5011601442131,126.882773011925
316,구로호텔점,서울특별시 구로구 디지털로32길 72 1층,37.4831824420615,126.8988572415558
317,목동사거리점,서울특별시 강서구 등촌로 25 (화곡동),37.5321737159228,126.863452316489
318,홈플러스강서점,서울특별시 강서구 화곡로 398 1층,37.5583878,126.8551017
319,가양역점,서울특별시 강서구 양천로 476 금부빌딩 지상1층,37.5616053,126.8532862
320,목동역점,서울특별시 양천구 목동로 203,37.5267918,126.8638543
321,홈플러스가양점,서울특별시 강서구 양천로 431 홈플러스가양점 1층,37.5643313,126.850121
322,강서구청점,서울특별시 강서구 화곡로 316 1층 (화곡동),37.5520827,126.8502174
323,신정점,서울특별시 양천구 신월로 349 (신정동),37.5221111,126.8598632
324,양천구청점,서울특별시 양천구 목동동로 73 1층,37.5160022,126.8634295
325,구일역점,"서울특별시 구로구 구일로10길 49 (구로동, 다원그린빌) 1층 제101-2호, 제102-1호",37.495746,126.8744688
326,현대아울렛가산점,서울특별시 금천구 디지털로10길 9,37.4776098,126.8891439
327,가산더블유몰점,서울특별시 금천구 디지털로 188 가산더블유몰,37.4773272277866,126.887676153817
328,가산디지털단지역점,서울특별시 금천구 벚꽃로 286,37.4804558,126.8842174
329,홈플러스금천점,서울특별시 금천구 시흥대로 391 홈플러스금천점 2F,37.4686638539154,126.896885338466
330,양천향교역점,서울특별시 강서구 양천로 344,37.5684675,126.8400281
331,NC강서점,서울특별시 강서구 강서로56길 17 4층,37.5599828,126.8403406
332,가산점,"서울특별시 금천구 가산디지털1로 171 121호, 122호",37.4807516,126.8806982
333,신정네거리역점,서울특별시 양천구 중앙로 252,37.5190709,126.8536884
334,까치산역점,"서울특별시 강서구 강서로13길 3, 지하 1층",37.5322957492562,126.846047920456
335,발산역점,"서울특별시 강서구 강서로 385 우성에스비타워 107호,108호,109호",37.5601133,126.8383023
336,발산점,서울특별시 강서구 강서로 360,37.5576741,126.8382938
337,은행나무사거리점,서울특별시 금천구 금하로 705,37.4516312,126.9083685
338,시흥사거리점,서울특별시 금천구 시흥대로 228 1층,37.4543233,126.9013331
339,우장산역점,서울특별시 강서구 강서로 253,37.5485159,126.836082
340,화곡역점,서울특별시 강서구 화곡로 149 심당빌딩 1층,37.5413552,126.8381734
341,개봉역북부점,서울특별시 구로구 경인로40길 41 181-5번지 외 2필지,37.495027723091205,126.8590318621573
342,홈플러스시흥점,서울특별시 금천구 시흥대로 201,37.4518936,126.9007885
343,마곡나루역점,서울특별시 강서구 마곡중앙5로 18 1층,37.5672279250287,126.825850572082
344,마곡역점,"서울특별시 강서구 공항대로 168 108호, 109호올리브영 마곡역점",37.5592736391913,126.826136981493
345,서서울호수공원점,서울특별시 양천구 남부순환로 424 올리브영 서서울호수공원점,37.5297815340206,126.831861728567
346,양천신월점,서울특별시 양천구 지양로 78,37.522677,126.8336209
347,신방화역점,"서울특별시 강서구 방화대로 294 마곡더블유타워 121호,122호",37.5669962,126.8170516
348,오류동역점,서울특별시 구로구 경인로 204,37.495756600538,126.843746742679
349,신정이펜하우스점,"서울특별시 양천구 신정이펜2로 14 제1층 101호, 102호, 103호",37.5127437,126.8323162
350,방화역점,서울특별시 강서구 금낭화로 292,37.5760563,126.8118787
351,송정역점,서울특별시 강서구 공항대로 28 1층,37.561099,126.8103064
352,천왕역점,서울특별시 구로구 오류로 20 (오류동 173-47 ),37.48653,126.8394917
353,김포공항점,서울특별시 강서구 하늘길 38 롯데몰스카이파크 지하2층,37.5627515,126.8023668
354,군포행사장,서울특별시 중구 소월로2길 12,37.5542795,126.9765175
355,미아사거리점,서울특별시 강북구 도봉로 41-1,37.6198903,127.0288685
356,쌍문역점,서울특별시 도봉구 도봉로 480 1층,37.6806064,127.0455927
